{
  "type": "FeatureCollection",
  "features": [
    {
      "type": "Feature",
      "properties": {
        "location": "Daily_Times_Estate"
      },
      "geometry": {
        "type": "Point",
        "coordinates": [
          3.250107765197754,
          6.448684486558717
        ]
      }
    },
    {
      "type": "Feature",
      "properties": {
        "location": "Monkey_village_iba",
        "year": 2010
      },
      "geometry": {
        "type": "Point",
        "coordinates": [
          3.197836875915527,
          6.491880823642223
        ]
      }
    },
    {
      "type": "Feature",
      "properties": {
        "location": "silver_estate_isolo",
        "marker-symbol": ""
      },
      "geometry": {
        "type": "Point",
        "coordinates": [
          3.2883238792419434,
          6.560079134419954
        ]
      }
    },
    {
      "type": "Feature",
      "properties": {
        "marker-color": "#7e7e7e",
        "marker-size": "medium",
        "marker-symbol": "",
        "location": "nanka_anambra"
      },
      "geometry": {
        "type": "Point",
        "coordinates": [
          7.08742618560791,
          6.060629556144678
        ]
      }
    },
    {
      "type": "Feature",
      "properties": {
        "location": "lekki_lagos"
      },
      "geometry": {
        "type": "Point",
        "coordinates": [
          3.5989719629287715,
          6.49586233341746
        ]
      }
    }
  ]
}