{
  "type": "FeatureCollection",
  "features": [
    {
      "type": "Feature",
      "properties": {
        "location": "Daily_Times_Estate",
        "prod_size": 25,
        "prod_unit": "kilogram",
        "year": 2012
      },
      "geometry": {
        "type": "Point",
        "coordinates": [
          3.250107765197754,
          6.448684486558717
        ]
      }
    },
    {
      "type": "Feature",
      "properties": {
        "location": "Monkey_village_iba",
        "year": 2010,
        "marker-symbol": "",
        "marker-color": "",
        "marker-size": "",
        "prod_size": 50,
        "prod_unit": "kilogram"
      },
      "geometry": {
        "type": "Point",
        "coordinates": [
          3.197836875915527,
          6.491880823642223
        ]
      }
    },
    {
      "type": "Feature",
      "properties": {
        "marker-color": "#7e7e7e",
        "marker-size": "medium",
        "location": "silver_estate_isolo",
        "marker-symbol": "",
        "year": 2014,
        "source": "http://pulse.ng/gist/agent-of-death-ndlea-nab-baron-for-producing-hard-drugs-id3906342.html"
      },
      "geometry": {
        "type": "Point",
        "coordinates": [
          3.330428,
          6.548941
        ]
      }
    },
    {
      "type": "Feature",
      "properties": {
        "marker-color": "#7e7e7e",
        "marker-size": "medium",
        "marker-symbol": "",
        "location": "nanka_anambra"
      },
      "geometry": {
        "type": "Point",
        "coordinates": [
          7.08742618560791,
          6.060629556144678
        ]
      }
    },
    {
      "type": "Feature",
      "properties": {
        "location": "lekki_lagos"
      },
      "geometry": {
        "type": "Point",
        "coordinates": [
          3.5989719629287715,
          6.49586233341746
        ]
      }
    },
    {
      "type": "Feature",
      "properties": {
        "location": "ajah_lagos",
        "prod_size": 2012,
        "marker-size": 20,
        "source": "kilogram"
      },
      "geometry": {
        "type": "Point",
        "coordinates": [
          3.563861846923828,
          6.469003855387085
        ]
      }
    }
  ]
}