{
  "type": "FeatureCollection",
  "features": [
    {
      "type": "Feature",
      "properties": {
        "location": "Daily_Times_Estate",
        "prod_size": 25,
        "prod_unit": "kilogram",
        "year": 2012,
        "month": ""
      },
      "geometry": {
        "type": "Point",
        "coordinates": [
          3.250107765197754,
          6.448684486558717
        ]
      }
    },
    {
      "type": "Feature",
      "properties": {
        "location": "Monkey_village_iba",
        "year": 2011,
        "marker-symbol": "",
        "marker-color": "",
        "marker-size": "",
        "prod_size": 50,
        "prod_unit": "kilogram",
        "month": "june"
      },
      "geometry": {
        "type": "Point",
        "coordinates": [
          3.197836875915527,
          6.491880823642223
        ]
      }
    },
    {
      "type": "Feature",
      "properties": {
        "marker-color": "#7e7e7e",
        "marker-size": "medium",
        "location": "silver_estate_isolo",
        "marker-symbol": "",
        "year": 2014,
        "source": "http://pulse.ng/gist/agent-of-death-ndlea-nab-baron-for-producing-hard-drugs-id3906342.html"
      },
      "geometry": {
        "type": "Point",
        "coordinates": [
          3.330428,
          6.548941
        ]
      }
    },
    {
      "type": "Feature",
      "properties": {
        "marker-color": "#7e7e7e",
        "marker-size": "medium",
        "marker-symbol": "",
        "location": "nanka_anambra",
        "prod_size": 20,
        "year": 2012,
        "prod_unit": "kilogram"
      },
      "geometry": {
        "type": "Point",
        "coordinates": [
          7.08742618560791,
          6.060629556144678
        ]
      }
    },
    {
      "type": "Feature",
      "properties": {
        "location": "lekki_lagos",
        "year": "",
        "marker-symbol": "",
        "marker-color": "",
        "marker-size": "",
        "source": ""
      },
      "geometry": {
        "type": "Point",
        "coordinates": [
          3.5989719629287715,
          6.49586233341746
        ]
      }
    },
    {
      "type": "Feature",
      "properties": {
        "location": "ajah_lagos",
        "prod_size": 20,
        "marker-size": "",
        "source": "",
        "year": 2012,
        "prod_unit": "kilogram"
      },
      "geometry": {
        "type": "Point",
        "coordinates": [
          3.563861846923828,
          6.469003855387085
        ]
      }
    },
    {
      "type": "Feature",
      "properties": {
        "location": "Jakande_Estate_Lagos",
        "prod_size": 20,
        "prod_unit": "kilogram",
        "year": 2012
      },
      "geometry": {
        "type": "Point",
        "coordinates": [
          3.5036516189575195,
          6.430027475726402
        ]
      }
    },
    {
      "type": "Feature",
      "properties": {
        "location": "asaba_superlab",
        "prod_size": 4000,
        "prod_unit": "kilogram",
        "year": 2016,
        "month": "",
        "marker-symbol": "",
        "marker-color": "",
        "marker-size": "http://nationaldailyng.com/ndlea-busts-methamphetamine-laboratory-in-asaba/",
        "source": "february"
      },
      "geometry": {
        "type": "Point",
        "coordinates": [
          6.684279441833496,
          6.188726030677376
        ]
      }
    }
  ]
}